{"type":"FeatureCollection", "features":[
{"type":"Feature","geometry":{"type":"Point","coordinates":[-2.230571038310318,3.144256479024678,0]},"properties":{"name":"Yfondh"}},
{"type":"Feature","geometry":{"type":"Point","coordinates":[-3.069674082985662,3.315976998753141,0]},"properties":{"name":"Azamp-Hav"}},
{"type":"Feature","geometry":{"type":"Point","coordinates":[-3.297185664196184,1.919736605509081,0]},"properties":{"name":"Ar-Hav"}},
{"type":"Feature","geometry":{"type":"Point","coordinates":[-3.198130008551302,1.78831321774547,0]},"properties":{"name":"Arna"}},
{"type":"Feature","geometry":{"type":"Point","coordinates":[-2.385071356463445,1.899781834095926,0]},"properties":{"name":"Misgen"}},
{"type":"Feature","geometry":{"type":"Point","coordinates":[-1.939412394231227,2.095690292667708,0]},"properties":{"name":"Yniz"}},
{"type":"Feature","geometry":{"type":"Point","coordinates":[-1.882552848177497,1.922387540594875,0]},"properties":{"name":"Tallien"}},
{"type":"Feature","geometry":{"type":"Point","coordinates":[-1.932906235777367,1.785980896497185,0]},"properties":{"name":"Eswir"}},
{"type":"Feature","geometry":{"type":"Point","coordinates":[-1.873354013708278,0.07043182172136053,0]},"properties":{"name":"Ynha"}},
{"type":"Feature","geometry":{"type":"Point","coordinates":[-0.95464065905699,-0.4731647504245136,0]},"properties":{"name":"Yomhalin"}}
]}
