{"type":"FeatureCollection", "features":[
{"type":"Feature","geometry":{"type":"Point","coordinates":[-2.230571038310318,3.144256479024678,0]},"properties":{"name":"Yfondh","description": '<img src="'imagePaths.villeInconue'">}},
{"type":"Feature","geometry":{"type":"Point","coordinates":[-3.069674082985662,3.315976998753141,0]},"properties":{"name":"Azamp-Hav","description": '<img src="'imagePaths.villeInconue'">}},
{"type":"Feature","geometry":{"type":"Point","coordinates":[-3.297185664196184,1.919736605509081,0]},"properties":{"name":"Ar-Hav","description": '<img src="'imagePaths.villeInconue'">}},
{"type":"Feature","geometry":{"type":"Point","coordinates":[-3.198130008551302,1.78831321774547,0]},"properties":{"name":"Arna"}},
{"type":"Feature","geometry":{"type":"Point","coordinates":[-2.385071356463445,1.899781834095926,0]},"properties":{"name":"Misgen"}},
{"type":"Feature","geometry":{"type":"Point","coordinates":[-1.939412394231227,2.095690292667708,0]},"properties":{"name":"Yniz"}},
{"type":"Feature","geometry":{"type":"Point","coordinates":[-1.882552848177497,1.922387540594875,0]},"properties":{"name":"Tallien"}},
{"type":"Feature","geometry":{"type":"Point","coordinates":[-1.932906235777367,1.785980896497185,0]},"properties":{"name":"Eswir"}},
{"type":"Feature","geometry":{"type":"Point","coordinates":[-1.873354013708278,0.07043182172136053,0]},"properties":{"name":"Ynha"}},
{"type":"Feature","geometry":{"type":"Point","coordinates":[-0.95464065905699,-0.4731647504245136,0]},"properties":{"name":"Yomhalin"}},
{"type":"Feature","geometry":{"type":"Point","coordinates":[-0.1021528165206365,-0.6765148296215228,0]},"properties":{"name":"Andelin"}},
{"type":"Feature","geometry":{"type":"Point","coordinates":[0.8945129800284568,-1.35681960507489,0]},"properties":{"name":"Nilin-Oloran"}},
{"type":"Feature","geometry":{"type":"Point","coordinates":[1.395446217012346,-1.462104219861891,0]},"properties":{"name":"Flamlin"}},
{"type":"Feature","geometry":{"type":"Point","coordinates":[1.900817499331067,-1.44996351245769,0]},"properties":{"name":"Demon-Astang"}},
{"type":"Feature","geometry":{"type":"Point","coordinates":[1.877240065398367,-1.703665922040484,0]},"properties":{"name":"Draganlin"}},
{"type":"Feature","geometry":{"type":"Point","coordinates":[1.195887998360279,-2.770909234296108,0]},"properties":{"name":"Velolia"}},
{"type":"Feature","geometry":{"type":"Point","coordinates":[0.7448192552515964,-2.932453356995349,0]},"properties":{"name":"Astudipshir"}},
{"type":"Feature","geometry":{"type":"Point","coordinates":[1.041607474551887,-3.46033619443849,0]},"properties":{"name":"Saub"}},
{"type":"Feature","geometry":{"type":"Point","coordinates":[1.075838161797795,-4.049634779880553,0]},"properties":{"name":"Yatsim"}},
{"type":"Feature","geometry":{"type":"Point","coordinates":[3.906719573627293,-1.010875982620387,0]},"properties":{"name":"Brum"}},
{"type":"Feature","geometry":{"type":"Point","coordinates":[-2.920984317467219,3.605506430098762,0]},"properties":{"name":"Agtod-Hav"}},
{"type":"Feature","geometry":{"type":"Point","coordinates":[-2.459975382628168,3.989892243031054,0]},"properties":{"name":"Jerndal"}},
{"type":"Feature","geometry":{"type":"Point","coordinates":[-2.258345016972416,4.147579298379774,0]},"properties":{"name":"Tzagid"}},
{"type":"Feature","geometry":{"type":"Point","coordinates":[-2.249966280576379,4.720842191479481,0]},"properties":{"name":"Ragkaod"}},
{"type":"Feature","geometry":{"type":"Point","coordinates":[-1.451767380827086,2.266653427161211,0]},"properties":{"name":"Ylous"}},
{"type":"Feature","geometry":{"type":"Point","coordinates":[1.060339366361782,0.6221273054880145,0]},"properties":{"name":"Shelin"}},
{"type":"Feature","geometry":{"type":"Point","coordinates":[1.468704565060419,0.8737982373156628,0]},"properties":{"name":"Kalid-da"}},
{"type":"Feature","geometry":{"type":"Point","coordinates":[0.8348050350288871,1.783439067284098,0]},"properties":{"name":"Nefva"}},
{"type":"Feature","geometry":{"type":"Point","coordinates":[-0.04677453923346175,1.730465671044425,0]},"properties":{"name":"haute-Banniere"}},
{"type":"Feature","geometry":{"type":"Point","coordinates":[-0.6773572311368303,2.277259153954683,0]},"properties":{"name":"Mas-rouge"}},
{"type":"Feature","geometry":{"type":"Point","coordinates":[-0.5515998347176987,2.387401537444776,0]},"properties":{"name":"Alnaad"}},
{"type":"Feature","geometry":{"type":"Point","coordinates":[0.481983903019132,3.14654039505802,0]},"properties":{"name":"Baran"}},
{"type":"Feature","geometry":{"type":"Point","coordinates":[-1.937705802399925,5.522562590236036,0]},"properties":{"name":"Kraod"}},
{"type":"Feature","geometry":{"type":"Point","coordinates":[-0.8843702449826485,4.028329595180818,0]},"properties":{"name":"Rzomyad"}},
{"type":"Feature","geometry":{"type":"Point","coordinates":[-0.6468806211190514,4.210191820695098,0]},"properties":{"name":"Akh"}},
{"type":"Feature","geometry":{"type":"Point","coordinates":[0.3349357445526735,3.492511435843242,0]},"properties":{"name":"Glenea"}},
{"type":"Feature","geometry":{"type":"Point","coordinates":[1.569946575188319,2.812294206150531,0]},"properties":{"name":"Sertal"}},
{"type":"Feature","geometry":{"type":"Point","coordinates":[3.974136501393384,0.5652408815934737,0]},"properties":{"name":"Shamaen"}},
{"type":"Feature","geometry":{"type":"Point","coordinates":[3.448201558474657,1.096525892383996,0]},"properties":{"name":"Vala"}},
{"type":"Feature","geometry":{"type":"Point","coordinates":[3.770290788304913,1.357397047017827,0]},"properties":{"name":"Seneol"}},
{"type":"Feature","geometry":{"type":"Point","coordinates":[2.953858099557172,2.315965031212478,0]},"properties":{"name":"Cro"}},
{"type":"Feature","geometry":{"type":"Point","coordinates":[2.919695680734418,2.963358423916235,0]},"properties":{"name":"Cavano"}},
{"type":"Feature","geometry":{"type":"Point","coordinates":[3.303454552492682,3.475660464061835,0]},"properties":{"name":"Cavendir"}},
{"type":"Feature","geometry":{"type":"Point","coordinates":[3.316231883199223,3.842413739777828,0]},"properties":{"name":"Gher-Noireau"}}
]}
